<?xml version="1.0" encoding="utf-8"?>
<kml xmlns="http://www.opengis.net/kml/2.2">
  <Document>
    <name>London stations with zone information</name>
    <Style id="station">
      <IconStyle>
        <Icon>
          <href>https://jchrisjones.github.io/london-underground-logo.png</href>
        </Icon>
      </IconStyle>
    </Style>
   
    <Placemark>
      <name>Baker Street</name>
      <styleUrl>#station</styleUrl>
      <description>
        <div>Zone: 1</div>
        <div>Postcode: NW1 5LA</div>
        <div>Latitude: 51.52313</div>
        <div>Longitude: -0.156904</div>
        <div>
        </div>
      </description>
      <Point>
        <coordinates>-0.156904,51.52313,0</coordinates>
      </Point>
    </Placemark>
	<Placemark>
      <name>Regents Park</name>
      <styleUrl>#station</styleUrl>
      <description>
        <div>Zone: 1</div>
        <div>Postcode: NW1 5HA</div>
        <div>Latitude: 51.523811</div>
        <div>Longitude: -0.145344</div>        
      </description>
      <Point>
        <coordinates>-0.145344,51.523811,0</coordinates>
      </Point>
    </Placemark>
	<Placemark>
      <name>Oxford Circus</name>
      <styleUrl>#station</styleUrl>
      <description>
        <div>Zone: 1</div>
        <div>Postcode: W1C 2JS</div>
        <div>Latitude: 51.515223</div>
        <div>Longitude: -0.140836</div>        
      </description>
      <Point>
        <coordinates>-0.140836,51.515223,0</coordinates>
      </Point>
    </Placemark>
	<Placemark>
      <name>Piccadilly Circus</name>
      <styleUrl>#station1</styleUrl>
      <description>
        <div>Zone: 1</div>
        <div>Postcode: W1J 9HS</div>
        <div>Latitude: 51.509697</div>
        <div>Longitude: -0.133712</div>        
      </description>
      <Point>
        <coordinates>-0.133712,51.509697,0</coordinates>
      </Point>
    </Placemark>
	<Placemark>
      <name>Embankment</name>
      <styleUrl>#station</styleUrl>
      <description>
        <div>Zone: 1</div>
        <div>Postcode: WC2N 6NS</div>
        <div>Latitude: 51.507312</div>
        <div>Longitude: -0.122367</div>        
      </description>
      <Point>
        <coordinates>-0.122367,51.507312,0</coordinates>
      </Point>
    </Placemark>
	<Placemark>
      <name>Waterloo</name>
      <styleUrl>#station</styleUrl>
      <description>
        <div>Zone: 1</div>
        <div>Postcode: SE1 7NY</div>
        <div>Latitude: 51.503147</div>
        <div>Longitude: -0.113259</div>        
      </description>
      <Point>
        <coordinates>-0.113259,51.503147,0</coordinates>
      </Point>
    </Placemark>
	<Placemark>
      <name>Lambeth North</name>
      <styleUrl>#station</styleUrl>
      <description>
        <div>Zone: 1</div>
        <div>Postcode: SE1 7XG</div>
        <div>Latitude: 51.49913</div>
        <div>Longitude: -0.111768</div>        
      </description>
      <Point>
        <coordinates>-0.111768,51.49913,0</coordinates>
      </Point>
    </Placemark>
	<Placemark>
      <name>Elephant and Castle</name>
      <styleUrl>#station</styleUrl>
      <description>
        <div>Zone: 1,2</div>
        <div>Postcode: SE1 6LW</div>
        <div>Latitude: 51.495849</div>
        <div>Longitude: -0.100739</div>       
      </description>
      <Point>
        <coordinates>-0.100739,51.495849,0</coordinates>
      </Point>
    </Placemark>	
	<Placemark>
      <name>Highbury and Islington</name>
      <styleUrl>#station</styleUrl>
      <description>
        <div>Zone: 2</div>
        <div>Postcode: N1 1SE</div>
        <div>Latitude: 51.546496</div>
        <div>Longitude: -0.104082</div>       
      </description>
      <Point>
        <coordinates>-0.104082,51.546496,0</coordinates>
      </Point>
    </Placemark>
	<Placemark>
      <name>King's Cross</name>
      <styleUrl>#station</styleUrl>
      <description>
        <div>Zone: 1</div>
        <div>Postcode: N1 9AL</div>
        <div>Latitude: 51.530888</div>
        <div>Longitude: -0.122491</div>        
      </description>
      <Point>
        <coordinates>-0.122756,51.530798,0</coordinates>
      </Point>
    </Placemark>
	<Placemark>
      <name>Warren Street</name>
      <styleUrl>#station</styleUrl>
      <description>
        <div>Zone: 1</div>
        <div>Postcode: NW1 3AA</div>
        <div>Latitude: 51.52458</div>
        <div>Longitude: -0.138278</div>        
      </description>
      <Point>
        <coordinates>-0.138278,51.52458,0</coordinates>
      </Point>
    </Placemark>
	<Placemark>
      <name>Green Park</name>
      <styleUrl>#station</styleUrl>
      <description>
        <div>Zone: 1</div>
        <div>Postcode: W1J 7BX</div>
        <div>Latitude: 51.50676</div>
        <div>Longitude: -0.142478</div>        
      </description>
      <Point>
        <coordinates>-0.142478,51.50676,0</coordinates>
      </Point>
    </Placemark>
	<Placemark>
      <name>Vauxhall</name>
      <styleUrl>#station</styleUrl>
      <description>
        <div>Zone: 1,2</div>
        <div>Postcode: SW8 1SR</div>
        <div>Latitude: 51.485736</div>
        <div>Longitude: -0.12383</div>        
      </description>
      <Point>
        <coordinates>-0.12383,51.485736,0</coordinates>
      </Point>
    </Placemark>
	<Placemark>
      <name>Camden Town</name>
      <styleUrl>#station</styleUrl>
      <description>
        <div>Zone: 2</div>
        <div>Postcode: NW1 8NH</div>
        <div>Latitude: 51.539969</div>
        <div>Longitude: -0.142452</div>
      </description>
      <Point>
        <coordinates>-0.142452,51.539969,0</coordinates>
      </Point>
    </Placemark>
	<Placemark>
      <name>Euston</name>
      <styleUrl>#station</styleUrl>
      <description>
        <div>Zone: 1</div>
        <div>Postcode: NW1 2DU</div>
        <div>Latitude: 51.528664</div>
        <div>Longitude: -0.133296</div>
      </description>
      <Point>
        <coordinates>-0.133296,51.528664,0</coordinates>
      </Point>
    </Placemark>
	<Placemark>
      <name>Angel</name>
      <styleUrl>#station</styleUrl>
      <description>
        <div>Zone: 1</div>
        <div>Postcode: N1 8XB</div>
        <div>Latitude: 51.532968</div>
        <div>Longitude: -0.105581</div>
      </description>
      <Point>
        <coordinates>-0.105581,51.532968,0</coordinates>
      </Point>
    </Placemark>
	<Placemark>
      <name>Monument</name>
      <styleUrl>#station</styleUrl>
      <description>
        <div>Zone: 1</div>
        <div>Postcode: EC4R 9AA</div>
        <div>Latitude: 51.51063</div>
        <div>Longitude: -0.086188</div>
      </description>
      <Point>
        <coordinates>-0.086188,51.51063,0</coordinates>
      </Point>
    </Placemark>
	<Placemark>
      <name>London Bridge</name>
      <styleUrl>#station</styleUrl>
      <description>
        <div>Zone: 1</div>
        <div>Postcode: SE1 2SW</div>
        <div>Latitude: 51.504674</div>
        <div>Longitude: -0.086006</div>
      </description>
      <Point>
        <coordinates>-0.086006,51.504674,0</coordinates>
      </Point>
    </Placemark>
	<Placemark>
      <name>Clapham Common</name>
      <styleUrl>#station</styleUrl>
      <description>
        <div>Zone: 2</div>
        <div>Postcode: SW4 7AJ</div>
        <div>Latitude: 51.461804</div>
        <div>Longitude: -0.138315</div>
      </description>
      <Point>
        <coordinates>-0.138315,51.461804,0</coordinates>
      </Point>
    </Placemark>
	<Placemark>
      <name>Tower Hill</name>
      <styleUrl>#station</styleUrl>
      <description>
        <div>Zone: 1</div>
        <div>Postcode: EC3N 4DJ</div>
        <div>Latitude: 51.510394</div>
        <div>Longitude: -0.076701</div>
      </description>
      <Point>
        <coordinates>-0.076701,51.510394,0</coordinates>
      </Point>
    </Placemark>
	<Placemark>
      <name>Cannon Street</name>
      <styleUrl>#station</styleUrl>
      <description>
        <div>Zone: 1</div>
        <div>Postcode: EC4N 6AP</div>
        <div>Latitude: 51.511362</div>
        <div>Longitude: -0.090251</div>
      </description>
      <Point>
        <coordinates>-0.090251,51.511362,0</coordinates>
      </Point>
    </Placemark>
	<Placemark>
      <name>Mansion House</name>
      <styleUrl>#station</styleUrl>
      <description>
        <div>Zone: 1</div>
        <div>Postcode: EC4N 6JD</div>
        <div>Latitude: 51.512092</div>
        <div>Longitude: -0.094198</div>
      </description>
      <Point>
        <coordinates>-0.094198,51.512092,0</coordinates>
      </Point>
    </Placemark>
	<Placemark>
      <name>Blackfriars</name>
      <styleUrl>#station</styleUrl>
      <description>
        <div>Zone: 1</div>
        <div>Postcode: EC4V 4DD</div>
        <div>Latitude: 51.511587</div>
        <div>Longitude: -0.102995</div>
      </description>
      <Point>
        <coordinates>-0.102995,51.511587,0</coordinates>
      </Point>
    </Placemark>
	<Placemark>
      <name>Temple</name>
      <styleUrl>#station</styleUrl>
      <description>
        <div>Zone: 1</div>
        <div>Postcode: WC2R 2PH</div>
        <div>Latitude: 51.511041</div>
        <div>Longitude: -0.113726</div>        
      </description>
      <Point>
        <coordinates>-0.113726,51.511041,0</coordinates>
      </Point>
    </Placemark>
	<Placemark>
      <name>Victoria</name>
      <styleUrl>#station</styleUrl>
      <description>
        <div>Zone: 1</div>
        <div>Postcode: SW1E 5JX</div>
        <div>Latitude: 51.496424</div>
        <div>Longitude: -0.143921</div>        
      </description>
      <Point>
        <coordinates>-0.143921,51.496424,0</coordinates>
      </Point>
    </Placemark>
	</Document>
</kml>
